{
  "name": "shibuya_5stops",
  "depot": {
    "lat": 35.660189965079894,
    "lon": 139.69998990108047,
    "node_id": 52,
    "address": "渋谷区 配送センター"
  },
  "stops": [
    {
      "id": 1,
      "name": "Stop_1_office",
      "type": "office",
      "lat": 35.658560714625914,
      "lon": 139.7069208353048,
      "demand": 2,
      "time_window": [
        540,
        1020
      ],
      "address": "渋谷区 4丁目7番"
    },
    {
      "id": 2,
      "name": "Stop_2_restaurant",
      "type": "restaurant",
      "lat": 35.65858824503604,
      "lon": 139.71170729701035,
      "demand": 6,
      "time_window": [
        360,
        660
      ],
      "address": "渋谷区 2丁目1番"
    },
    {
      "id": 3,
      "name": "Stop_3_convenience_store",
      "type": "convenience_store",
      "lat": 35.653906105122815,
      "lon": 139.70001760291782,
      "demand": 3,
      "time_window": [
        540,
        1260
      ],
      "address": "渋谷区 5丁目3番"
    },
    {
      "id": 4,
      "name": "Stop_4_residential",
      "type": "residential",
      "lat": 35.659838467979164,
      "lon": 139.7050856063158,
      "demand": 2,
      "time_window": [
        840,
        1200
      ],
      "address": "渋谷区 3丁目3番"
    },
    {
      "id": 5,
      "name": "Stop_5_office",
      "type": "office",
      "lat": 35.65697572671105,
      "lon": 139.6965768807123,
      "demand": 2,
      "time_window": [
        540,
        1020
      ],
      "address": "渋谷区 3丁目1番"
    }
  ],
  "distance_matrix": [
    [
      0.0,
      757.775013452161,
      1196.66634701563,
      702.8327666756226,
      483.2854661135357,
      673.8623635593342
    ],
    [
      757.775013452161,
      0.0,
      438.89133356346883,
      1062.1593797256905,
      274.48954733862536,
      1183.7302469159943
    ],
    [
      1196.6663470156298,
      438.89133356346883,
      0.0,
      1408.0914565904734,
      713.3808809020942,
      1622.621580479463
    ],
    [
      702.8327666756227,
      1062.1593797256905,
      1408.0914565904736,
      0.0,
      1022.6645548636205,
      655.4649123556494
    ],
    [
      483.2854661135357,
      274.48954733862536,
      713.3808809020942,
      1022.6645548636204,
      0.0,
      1129.7514517587306
    ],
    [
      662.4225777935278,
      1122.6019151541016,
      1468.5339920188846,
      650.2018105535842,
      1083.1070902920314,
      0.0
    ]
  ],
  "n_stops": 5,
  "total_demand": 15,
  "vehicle_capacity": 15,
  "metadata": {
    "region": "Shibuya Ward, Tokyo",
    "network_nodes": 120,
    "network_edges": 433,
    "seed": 42,
    "generated_at": "2026-02-14 09:01:33"
  }
}